1713181749.9467692,HEARTBEAT,type:2,autopilot:3,base_mode:81,custom_mode:0,system_status:3,mavlink_version:3
1713181749.947701,HEARTBEAT,type:27,autopilot:8,base_mode:4,custom_mode:0,system_status:4,mavlink_version:3
1713181750.9130888,HEARTBEAT,type:2,autopilot:3,base_mode:81,custom_mode:0,system_status:3,mavlink_version:3
1713181750.9130888,HEARTBEAT,type:27,autopilot:8,base_mode:4,custom_mode:0,system_status:4,mavlink_version:3
1713181751.6161427,SYS_STATUS,onboard_control_sensors_present:1467022351,onboard_control_sensors_enabled:1382063119,onboard_control_sensors_health:1198562319,load:263,voltage_battery:26,current_battery:8,battery_remaining:99,drop_rate_comm:0,errors_comm:0,errors_count1:0,errors_count2:0,errors_count3:0,errors_count4:0
1713181751.6171432,GLOBAL_POSITION_INT,time_boot_ms:1130371,lat:0,lon:0,alt:0,relative_alt:-4334,vx:0,vy:0,vz:2,hdg:28317
1713181751.6171432,SYSTEM_TIME,time_unix_usec:0,time_boot_ms:1130371
1713181751.6181426,AHRS,omegaIx:-0.00030194505234248936,omegaIy:0.00021347416623029858,omegaIz:-0.0005318612675182521,accel_weight:0.0,renorm_val:0.0,error_rp:0.0001297132548643276,error_yaw:0.025270795449614525
1713181751.6181426,TERRAIN_REPORT,lat:0,lon:0,spacing:0,terrain_height:0.0,current_height:0.0,pending:0,loaded:0
1713181751.6191428,EKF_STATUS_REPORT,flags:167,velocity_variance:0.0,pos_horiz_variance:0.0005011397297494113,pos_vert_variance:0.008105538785457611,compass_variance:0.029282232746481895,terrain_alt_variance:0.0,airspeed_variance:0.0
1713181751.6201432,VIBRATION,time_usec:1130371954,vibration_x:0.018841711804270744,vibration_y:0.020262904465198517,vibration_z:0.05469687283039093,clipping_0:0,clipping_1:0,clipping_2:0
1713181751.6217878,BATTERY_STATUS,id:0,battery_function:0,type:0,temperature:32767,voltages:[26, 65535, 65535, 65535, 65535, 65535, 65535, 65535, 65535, 65535],current_battery:8,current_consumed:27,energy_consumed:0,battery_remaining:99,time_remaining:0,charge_state:1,voltages_ext:[0, 0, 0, 0],mode:0,fault_bitmask:0
1713181751.6268146,ATTITUDE,time_boot_ms:1130374,roll:-0.01503718737512827,pitch:-0.008647844195365906,yaw:-1.3409711122512817,rollspeed:-9.935196430888027e-05,pitchspeed:-0.00010295260290149599,yawspeed:-9.115735883824527e-05
1713181751.6278136,AHRS2,roll:-0.015095788985490799,pitch:-0.008659553714096546,yaw:-1.3457468748092651,altitude:-4.329999923706055,lat:0,lng:0
1713181751.6278136,VFR_HUD,airspeed:0.0,groundspeed:0.0019157658098265529,heading:283,throttle:0,alt:0.0,climb:-0.02310832031071186
1713181751.6292787,ATTITUDE,time_boot_ms:1130424,roll:-0.015029317699372768,pitch:-0.008654293604195118,yaw:-1.3409606218338013,rollspeed:0.000584685942158103,pitchspeed:-0.0008064736612141132,yawspeed:0.0006313039339147508
1713181751.630284,AHRS2,roll:-0.015088183805346489,pitch:-0.00866934098303318,yaw:-1.3459519147872925,altitude:-4.329999923706055,lat:0,lng:0
1713181751.7082415,ATTITUDE,time_boot_ms:1130474,roll:-0.015045749954879284,pitch:-0.008665908128023148,yaw:-1.340980052947998,rollspeed:-0.0007347936043515801,pitchspeed:-0.0005083351861685514,yawspeed:-0.0002721117634791881
1713181751.7082415,AHRS2,roll:-0.01510474644601345,pitch:-0.008681971579790115,yaw:-1.3460203409194946,altitude:-4.369999885559082,lat:0,lng:0
1713181751.709243,VFR_HUD,airspeed:0.0,groundspeed:0.0019794816616922617,heading:283,throttle:0,alt:0.0,climb:-0.023781290277838707
1713181751.709243,ATTITUDE,time_boot_ms:1130524,roll:-0.01505103800445795,pitch:-0.008685761131346226,yaw:-1.340985655784607,rollspeed:-0.000499041227158159,pitchspeed:-0.0008349481504410505,yawspeed:-1.5892379451543093e-05
1713181751.710303,AHRS2,roll:-0.015110278502106667,pitch:-0.008701763115823269,yaw:-1.3460023403167725,altitude:-4.369999885559082,lat:0,lng:0
1713181751.8323042,GLOBAL_POSITION_INT,time_boot_ms:1130551,lat:0,lon:0,alt:0,relative_alt:-4509,vx:0,vy:0,vz:2,hdg:28317
1713181751.8333044,SYSTEM_TIME,time_unix_usec:0,time_boot_ms:1130551
1713181751.8343024,AHRS,omegaIx:-0.00030182587215676904,omegaIy:0.0002135313261533156,omegaIz:-0.0005350167048163712,accel_weight:0.0,renorm_val:0.0,error_rp:0.00012808771862182766,error_yaw:0.021298473700881004
1713181751.8343024,TERRAIN_REPORT,lat:0,lon:0,spacing:0,terrain_height:0.0,current_height:0.0,pending:0,loaded:0
1713181751.8343024,EKF_STATUS_REPORT,flags:167,velocity_variance:0.0,pos_horiz_variance:0.0004973936593160033,pos_vert_variance:0.006044848822057247,compass_variance:0.00035620175185613334,terrain_alt_variance:0.0,airspeed_variance:0.0
1713181751.8343024,VIBRATION,time_usec:1130552085,vibration_x:0.01977016218006611,vibration_y:0.016665847972035408,vibration_z:0.03307753801345825,clipping_0:0,clipping_1:0,clipping_2:0
1713181751.8343024,BATTERY_STATUS,id:0,battery_function:0,type:0,temperature:32767,voltages:[26, 65535, 65535, 65535, 65535, 65535, 65535, 65535, 65535, 65535],current_battery:8,current_consumed:27,energy_consumed:0,battery_remaining:99,time_remaining:0,charge_state:1,voltages_ext:[0, 0, 0, 0],mode:0,fault_bitmask:0
1713181751.835303,ATTITUDE,time_boot_ms:1130574,roll:-0.015040618367493153,pitch:-0.008682897314429283,yaw:-1.3410017490386963,rollspeed:0.00022535229800269008,pitchspeed:-8.686984074302018e-05,yawspeed:0.00032667082268744707
1713181751.835303,AHRS2,roll:-0.015099971555173397,pitch:-0.008697737008333206,yaw:-1.3459244966506958,altitude:-4.5,lat:0,lng:0
1713181751.835303,VFR_HUD,airspeed:0.0,groundspeed:0.0021385278087109327,heading:283,throttle:0,alt:0.0,climb:-0.024543073028326035
1713181751.835303,HEARTBEAT,type:2,autopilot:3,base_mode:81,custom_mode:0,system_status:3,mavlink_version:3
1713181751.836303,ATTITUDE,time_boot_ms:1130624,roll:-0.015030627138912678,pitch:-0.008692963980138302,yaw:-1.3410029411315918,rollspeed:-0.00024366960860788822,pitchspeed:-0.0003121382324025035,yawspeed:0.00011963199358433485
1713181751.836303,AHRS2,roll:-0.015090200118720531,pitch:-0.008706308901309967,yaw:-1.345828890800476,altitude:-4.5,lat:0,lng:0
1713181751.836303,HEARTBEAT,type:27,autopilot:8,base_mode:4,custom_mode:0,system_status:4,mavlink_version:3
1713181751.9067688,ATTITUDE,time_boot_ms:1130674,roll:-0.015013261698186398,pitch:-0.00869025383144617,yaw:-1.3410040140151978,rollspeed:0.0006430193898268044,pitchspeed:0.00041226245230063796,yawspeed:-0.00012048636563122272
1713181751.9077706,AHRS2,roll:-0.01507258228957653,pitch:-0.008699868805706501,yaw:-1.3456374406814575,altitude:-4.559999942779541,lat:0,lng:0
1713181751.9077706,VFR_HUD,airspeed:0.0,groundspeed:0.0019996894989162683,heading:283,throttle:0,alt:0.0,climb:-0.02574632316827774
1713181752.0301118,ATTITUDE,time_boot_ms:1130724,roll:-0.015012181363999844,pitch:-0.008676943369209766,yaw:-1.3409628868103027,rollspeed:0.00012505881022661924,pitchspeed:0.00036447413731366396,yawspeed:5.6011544074863195e-05
1713181752.0311148,AHRS2,roll:-0.015070834197103977,pitch:-0.008681691251695156,yaw:-1.3454174995422363,altitude:-4.559999942779541,lat:0,lng:0
1713181752.0321133,ATTITUDE,time_boot_ms:1130774,roll:-0.015013924799859524,pitch:-0.0086685661226511,yaw:-1.3409184217453003,rollspeed:0.00014882837422192097,pitchspeed:0.00035420735366642475,yawspeed:7.026578532531857e-05
1713181752.0321133,AHRS2,roll:-0.01507174875587225,pitch:-0.008672025054693222,yaw:-1.3454201221466064,altitude:-4.579999923706055,lat:0,lng:0
1713181752.0331419,VFR_HUD,airspeed:0.0,groundspeed:0.001931742299348116,heading:283,throttle:0,alt:0.0,climb:-0.027363747358322144
1713181752.0341122,ATTITUDE,time_boot_ms:1130824,roll:-0.015020650811493397,pitch:-0.008670440874993801,yaw:-1.34087336063385,rollspeed:1.0390969691798091e-05,pitchspeed:0.0005650579114444554,yawspeed:0.0003374821972101927
1713181752.0361137,AHRS2,roll:-0.01507773157209158,pitch:-0.008674110285937786,yaw:-1.3454972505569458,altitude:-4.579999923706055,lat:0,lng:0
1713181752.1539788,SYS_STATUS,onboard_control_sensors_present:1467022351,onboard_control_sensors_enabled:1382063119,onboard_control_sensors_health:1198562319,load:266,voltage_battery:28,current_battery:8,battery_remaining:99,drop_rate_comm:0,errors_comm:0,errors_count1:0,errors_count2:0,errors_count3:0,errors_count4:0
1713181752.1558702,POWER_STATUS,Vcc:4924,Vservo:53,flags:4
1713181752.1558702,MEMINFO,brkval:0,freemem:65535,freemem32:588552
1713181752.1558702,NAV_CONTROLLER_OUTPUT,nav_roll:-0.0003660647780634463,nav_pitch:0.00015034762327559292,nav_bearing:-76,target_bearing:0,wp_dist:0,alt_error:4.347437381744385,aspd_error:0.0,xtrack_error:0.0
1713181752.1568668,MISSION_CURRENT,seq:0,total:0,mission_state:0,mission_mode:0
1713181752.1568668,GPS_RAW_INT,time_usec:0,fix_type:0,lat:0,lon:0,alt:0,eph:65535,epv:65535,vel:0,cog:0,satellites_visible:0,alt_ellipsoid:0,h_acc:0,v_acc:0,vel_acc:0,hdg_acc:0,yaw:0
1713181752.157867,MCU_STATUS,id:0,MCU_temperature:4288,MCU_voltage:3281,MCU_voltage_min:3276,MCU_voltage_max:3286
1713181752.1588721,ATTITUDE,time_boot_ms:1130874,roll:-0.015030466951429844,pitch:-0.008665220811963081,yaw:-1.3408747911453247,rollspeed:-0.00014168981579132378,pitchspeed:1.4985562302172184e-07,yawspeed:0.00013273931108415127
1713181752.1588721,AHRS2,roll:-0.015087415464222431,pitch:-0.008667085319757462,yaw:-1.3454601764678955,altitude:-4.480000019073486,lat:0,lng:0
1713181752.1588721,VFR_HUD,airspeed:0.0,groundspeed:0.0018254087772220373,heading:283,throttle:0,alt:0.0,climb:-0.029439834877848625
1713181752.1601222,GLOBAL_POSITION_INT,time_boot_ms:1130884,lat:0,lon:0,alt:0,relative_alt:-4481,vx:0,vy:0,vz:2,hdg:28318
1713181752.1601222,SYSTEM_TIME,time_unix_usec:0,time_boot_ms:1130884
1713181752.1601222,AHRS,omegaIx:-0.0003014777903445065,omegaIy:0.0002133827656507492,omegaIz:-0.0005321362405084074,accel_weight:0.0,renorm_val:0.0,error_rp:0.00012037753913318738,error_yaw:0.023998096585273743
1713181752.1611402,TERRAIN_REPORT,lat:0,lon:0,spacing:0,terrain_height:0.0,current_height:0.0,pending:0,loaded:0
1713181752.1611402,EKF_STATUS_REPORT,flags:167,velocity_variance:0.0,pos_horiz_variance:0.000491674174554646,pos_vert_variance:0.023520665243268013,compass_variance:0.012137582525610924,terrain_alt_variance:0.0,airspeed_variance:0.0
1713181752.1611402,VIBRATION,time_usec:1130884296,vibration_x:0.008679935708642006,vibration_y:0.008697922341525555,vibration_z:0.01104730274528265,clipping_0:0,clipping_1:0,clipping_2:0
1713181752.1621225,BATTERY_STATUS,id:0,battery_function:0,type:0,temperature:32767,voltages:[28, 65535, 65535, 65535, 65535, 65535, 65535, 65535, 65535, 65535],current_battery:8,current_consumed:27,energy_consumed:0,battery_remaining:99,time_remaining:0,charge_state:1,voltages_ext:[0, 0, 0, 0],mode:0,fault_bitmask:0
1713181752.1621225,ATTITUDE,time_boot_ms:1130924,roll:-0.01503423135727644,pitch:-0.008666916750371456,yaw:-1.3408526182174683,rollspeed:0.00039157597348093987,pitchspeed:0.00021006457973271608,yawspeed:-0.000566656410228461
1713181752.1631331,AHRS2,roll:-0.015092488378286362,pitch:-0.008666759356856346,yaw:-1.3453514575958252,altitude:-4.480000019073486,lat:0,lng:0
1713181752.1631331,ATTITUDE,time_boot_ms:1130974,roll:-0.015038643963634968,pitch:-0.00867369957268238,yaw:-1.340832233428955,rollspeed:-0.0004224723088555038,pitchspeed:-0.0005340530187822878,yawspeed:6.690924055874348e-05
1713181752.164123,AHRS2,roll:-0.015098093077540398,pitch:-0.008672656491398811,yaw:-1.3453104496002197,altitude:-4.400000095367432,lat:0,lng:0
1713181752.1651237,VFR_HUD,airspeed:0.0,groundspeed:0.0016494380543008447,heading:283,throttle:0,alt:0.0,climb:-0.03130495548248291
1713181752.2933679,ATTITUDE,time_boot_ms:1131024,roll:-0.015034024603664875,pitch:-0.008674412965774536,yaw:-1.3408209085464478,rollspeed:-0.00037125303060747683,pitchspeed:-0.0005955655942671001,yawspeed:9.96130402199924e-05
1713181752.2944543,AHRS2,roll:-0.015094835311174393,pitch:-0.008673014119267464,yaw:-1.3453080654144287,altitude:-4.400000095367432,lat:0,lng:0
1713181752.2953675,ATTITUDE,time_boot_ms:1131074,roll:-0.015035419724881649,pitch:-0.008680044673383236,yaw:-1.3408219814300537,rollspeed:2.6232126401737332e-05,pitchspeed:-0.00033894123043864965,yawspeed:-0.00025731840287335217
1713181752.2963676,AHRS2,roll:-0.01509773451834917,pitch:-0.008676336146891117,yaw:-1.3452072143554688,altitude:-4.299999713897705,lat:0,lng:0
1713181752.2973683,VFR_HUD,airspeed:0.0,groundspeed:0.0016160572413355112,heading:283,throttle:0,alt:0.0,climb:-0.03272580727934837
1713181752.3714814,ATTITUDE,time_boot_ms:1131124,roll:-0.015031539835035801,pitch:-0.008677732199430466,yaw:-1.3407822847366333,rollspeed:-2.2806721972301602e-05,pitchspeed:0.0003420685534365475,yawspeed:0.00014089152682572603
1713181752.3721938,AHRS2,roll:-0.015096093527972698,pitch:-0.008670723997056484,yaw:-1.345054030418396,altitude:-4.299999713897705,lat:0,lng:0
1713181752.3721938,ATTITUDE,time_boot_ms:1131174,roll:-0.015026967041194439,pitch:-0.008675695396959782,yaw:-1.34074068069458,rollspeed:4.0849961806088686e-05,pitchspeed:0.0002996169787365943,yawspeed:0.0003841023426502943
1713181752.3732395,AHRS2,roll:-0.015093629248440266,pitch:-0.008668884634971619,yaw:-1.3451130390167236,altitude:-4.409999847412109,lat:0,lng:0
1713181752.3732395,VFR_HUD,airspeed:0.0,groundspeed:0.001647051889449358,heading:283,throttle:0,alt:0.0,climb:-0.03360728919506073
1713181752.4652398,GLOBAL_POSITION_INT,time_boot_ms:1131216,lat:0,lon:0,alt:0,relative_alt:-4419,vx:0,vy:0,vz:3,hdg:28319
1713181752.466154,SYSTEM_TIME,time_unix_usec:0,time_boot_ms:1131216
1713181752.466154,AHRS,omegaIx:-0.0003009510401170701,omegaIy:0.00021322233078535646,omegaIz:-0.0005308613181114197,accel_weight:0.0,renorm_val:0.0,error_rp:0.00011719945177901536,error_yaw:0.022979961708188057
1713181752.4672632,TERRAIN_REPORT,lat:0,lon:0,spacing:0,terrain_height:0.0,current_height:0.0,pending:0,loaded:0
1713181752.4672632,EKF_STATUS_REPORT,flags:167,velocity_variance:0.0,pos_horiz_variance:0.00046359948464669287,pos_vert_variance:0.004157230257987976,compass_variance:0.019978361204266548,terrain_alt_variance:0.0,airspeed_variance:0.0
1713181752.4682078,VIBRATION,time_usec:1131217112,vibration_x:0.008581220172345638,vibration_y:0.007383420132100582,vibration_z:0.011796807870268822,clipping_0:0,clipping_1:0,clipping_2:0
1713181752.4682078,BATTERY_STATUS,id:0,battery_function:0,type:0,temperature:32767,voltages:[26, 65535, 65535, 65535, 65535, 65535, 65535, 65535, 65535, 65535],current_battery:9,current_consumed:27,energy_consumed:0,battery_remaining:99,time_remaining:0,charge_state:1,voltages_ext:[0, 0, 0, 0],mode:0,fault_bitmask:0
1713181752.4702446,ATTITUDE,time_boot_ms:1131224,roll:-0.015031938441097736,pitch:-0.008673732168972492,yaw:-1.3407261371612549,rollspeed:-0.0002012541372096166,pitchspeed:-0.0001271467044716701,yawspeed:0.0005225187633186579
1713181752.4703903,AHRS2,roll:-0.015100826509296894,pitch:-0.008668349124491215,yaw:-1.3452508449554443,altitude:-4.409999847412109,lat:0,lng:0
1713181752.4713967,ATTITUDE,time_boot_ms:1131274,roll:-0.015049136243760586,pitch:-0.00866779312491417,yaw:-1.3407490253448486,rollspeed:-0.0004447638930287212,pitchspeed:5.127012263983488e-05,yawspeed:-0.0005831120652146637
1713181752.4713967,AHRS2,roll:-0.015119709074497223,pitch:-0.00866247620433569,yaw:-1.345311164855957,altitude:-4.440000057220459,lat:0,lng:0
1713181752.4713967,VFR_HUD,airspeed:0.0,groundspeed:0.001650610356591642,heading:283,throttle:0,alt:0.0,climb:-0.03441450744867325
1713181752.5580547,ATTITUDE,time_boot_ms:1131324,roll:-0.015047150664031506,pitch:-0.008677279576659203,yaw:-1.3407678604125977,rollspeed:0.00033378403168171644,pitchspeed:-0.00012546485231723636,yawspeed:-0.00023983782739378512
1713181752.5580547,AHRS2,roll:-0.015118230134248734,pitch:-0.008672073483467102,yaw:-1.34531569480896,altitude:-4.440000057220459,lat:0,lng:0
1713181752.5590408,SYS_STATUS,onboard_control_sensors_present:1467022351,onboard_control_sensors_enabled:1382063119,onboard_control_sensors_health:1198562319,load:262,voltage_battery:28,current_battery:8,battery_remaining:99,drop_rate_comm:0,errors_comm:0,errors_count1:0,errors_count2:0,errors_count3:0,errors_count4:0
1713181752.5600488,POWER_STATUS,Vcc:4917,Vservo:60,flags:4
1713181752.5610209,MEMINFO,brkval:0,freemem:65535,freemem32:588552
1713181752.5610209,NAV_CONTROLLER_OUTPUT,nav_roll:-0.0003660648944787681,nav_pitch:0.00015034755051601678,nav_bearing:-76,target_bearing:0,wp_dist:0,alt_error:4.388810634613037,aspd_error:0.0,xtrack_error:0.0
1713181752.5620673,MISSION_CURRENT,seq:0,total:0,mission_state:0,mission_mode:0
1713181752.5620673,GPS_RAW_INT,time_usec:0,fix_type:0,lat:0,lon:0,alt:0,eph:65535,epv:65535,vel:0,cog:0,satellites_visible:0,alt_ellipsoid:0,h_acc:0,v_acc:0,vel_acc:0,hdg_acc:0,yaw:0
1713181752.5630412,MCU_STATUS,id:0,MCU_temperature:4293,MCU_voltage:3281,MCU_voltage_min:3275,MCU_voltage_max:3288
1713181752.5640225,ATTITUDE,time_boot_ms:1131374,roll:-0.015033242292702198,pitch:-0.008684140630066395,yaw:-1.3407769203186035,rollspeed:-2.7403468266129494e-05,pitchspeed:0.00021904814639128745,yawspeed:0.00010909256525337696
1713181752.5651119,AHRS2,roll:-0.015104683116078377,pitch:-0.008678399957716465,yaw:-1.3452725410461426,altitude:-4.46999979019165,lat:0,lng:0
1713181752.5651119,VFR_HUD,airspeed:0.0,groundspeed:0.0017560044070705771,heading:283,throttle:0,alt:0.0,climb:-0.034798793494701385
1713181752.7134578,ATTITUDE,time_boot_ms:1131424,roll:-0.015046359039843082,pitch:-0.008696182630956173,yaw:-1.3407819271087646,rollspeed:-0.00021270626166369766,pitchspeed:0.00044911482837051153,yawspeed:0.0001467586844228208
1713181752.7134578,AHRS2,roll:-0.01511826366186142,pitch:-0.008689756505191326,yaw:-1.3452249765396118,altitude:-4.46999979019165,lat:0,lng:0
1713181752.7149453,ATTITUDE,time_boot_ms:1131474,roll:-0.015037593431770802,pitch:-0.008703143335878849,yaw:-1.3407832384109497,rollspeed:0.0006394132506102324,pitchspeed:0.0004138508520554751,yawspeed:0.0006846468895673752
1713181752.7149453,AHRS2,roll:-0.015109391883015633,pitch:-0.00869798194617033,yaw:-1.345310926437378,altitude:-4.630000114440918,lat:0,lng:0
1713181752.7149453,VFR_HUD,airspeed:0.0,groundspeed:0.0018314358312636614,heading:283,throttle:0,alt:0.0,climb:-0.03594747930765152
1713181752.715954,ATTITUDE,time_boot_ms:1131524,roll:-0.015033337287604809,pitch:-0.008707147091627121,yaw:-1.3408164978027344,rollspeed:-2.1163170458748937e-05,pitchspeed:-0.0004409194807521999,yawspeed:-0.00044702194281853735
1713181752.715954,AHRS2,roll:-0.015103938058018684,pitch:-0.00870322622358799,yaw:-1.345455288887024,altitude:-4.630000114440918,lat:0,lng:0
1713181752.8382714,GLOBAL_POSITION_INT,time_boot_ms:1131549,lat:0,lon:0,alt:0,relative_alt:-4707,vx:0,vy:0,vz:3,hdg:28318
1713181752.8382714,SYSTEM_TIME,time_unix_usec:0,time_boot_ms:1131549
1713181752.8393207,AHRS,omegaIx:-0.00030062516452744603,omegaIy:0.000213190185604617,omegaIz:-0.0005324292578734457,accel_weight:0.0,renorm_val:0.0,error_rp:0.00013467231474351138,error_yaw:0.02019815519452095
1713181752.8393207,TERRAIN_REPORT,lat:0,lon:0,spacing:0,terrain_height:0.0,current_height:0.0,pending:0,loaded:0
1713181752.8393207,EKF_STATUS_REPORT,flags:167,velocity_variance:0.0,pos_horiz_variance:0.0004387156805023551,pos_vert_variance:0.023792656138539314,compass_variance:0.01811956986784935,terrain_alt_variance:0.0,airspeed_variance:0.0
1713181752.8393207,VIBRATION,time_usec:1131549376,vibration_x:0.012719483114778996,vibration_y:0.010168955661356449,vibration_z:0.024430619552731514,clipping_0:0,clipping_1:0,clipping_2:0
1713181752.8405087,BATTERY_STATUS,id:0,battery_function:0,type:0,temperature:32767,voltages:[26, 65535, 65535, 65535, 65535, 65535, 65535, 65535, 65535, 65535],current_battery:8,current_consumed:27,energy_consumed:0,battery_remaining:99,time_remaining:0,charge_state:1,voltages_ext:[0, 0, 0, 0],mode:0,fault_bitmask:0
1713181752.8407223,ATTITUDE,time_boot_ms:1131574,roll:-0.015026786364614964,pitch:-0.008707551285624504,yaw:-1.340849757194519,rollspeed:3.57784447260201e-05,pitchspeed:-9.549243259243667e-06,yawspeed:-0.00020120077533647418
1713181752.8417222,AHRS2,roll:-0.015096055343747139,pitch:-0.008701907470822334,yaw:-1.345410704612732,altitude:-4.699999809265137,lat:0,lng:0
1713181752.8417222,VFR_HUD,airspeed:0.0,groundspeed:0.0017678969306871295,heading:283,throttle:0,alt:0.0,climb:-0.03738465532660484
1713181752.8427207,HEARTBEAT,type:2,autopilot:3,base_mode:81,custom_mode:0,system_status:3,mavlink_version:3
1713181752.8437622,ATTITUDE,time_boot_ms:1131624,roll:-0.015029295347630978,pitch:-0.008706804364919662,yaw:-1.3408617973327637,rollspeed:0.0003038843278773129,pitchspeed:-0.0001859412295743823,yawspeed:4.678405821323395e-05
1713181752.8447208,AHRS2,roll:-0.015097316354513168,pitch:-0.00869831908494234,yaw:-1.3452939987182617,altitude:-4.699999809265137,lat:0,lng:0
1713181752.8447208,HEARTBEAT,type:27,autopilot:8,base_mode:4,custom_mode:0,system_status:4,mavlink_version:3
1713181752.9313698,ATTITUDE,time_boot_ms:1131674,roll:-0.01502495538443327,pitch:-0.008687402121722698,yaw:-1.340855360031128,rollspeed:0.0002955783565994352,pitchspeed:2.011758624576032e-06,yawspeed:0.00040415150579065084
1713181752.9323723,AHRS2,roll:-0.015091939829289913,pitch:-0.008676580153405666,yaw:-1.3452256917953491,altitude:-4.460000038146973,lat:0,lng:0
1713181752.9333725,VFR_HUD,airspeed:0.0,groundspeed:0.0017866194248199463,heading:283,throttle:0,alt:0.0,climb:-0.03975598141551018
1713181752.9333725,ATTITUDE,time_boot_ms:1131724,roll:-0.015026104636490345,pitch:-0.008695371448993683,yaw:-1.340855360031128,rollspeed:-0.0006614837911911309,pitchspeed:0.0006461799493990839,yawspeed:-0.0002644622582010925
1713181752.9343798,AHRS2,roll:-0.015093699097633362,pitch:-0.008680969476699829,yaw:-1.34520423412323,altitude:-4.460000038146973,lat:0,lng:0
1713181753.0231054,ATTITUDE,time_boot_ms:1131774,roll:-0.015030569396913052,pitch:-0.00870022363960743,yaw:-1.3408452272415161,rollspeed:-0.00017196852422785014,pitchspeed:-7.150847523007542e-05,yawspeed:-0.00017305364599451423
1713181753.0241053,AHRS2,roll:-0.015098679810762405,pitch:-0.008682641200721264,yaw:-1.345197081565857,altitude:-4.679999828338623,lat:0,lng:0
1713181753.0241053,VFR_HUD,airspeed:0.0,groundspeed:0.0018347540171816945,heading:283,throttle:0,alt:0.0,climb:-0.04085009917616844
1713181753.0241053,ATTITUDE,time_boot_ms:1131824,roll:-0.015027391724288464,pitch:-0.008700915612280369,yaw:-1.3408132791519165,rollspeed:0.0006598112522624433,pitchspeed:-0.00013930920977145433,yawspeed:0.0006165304803289473
1713181753.0251043,AHRS2,roll:-0.01509612612426281,pitch:-0.008680379949510098,yaw:-1.3451776504516602,altitude:-4.679999828338623,lat:0,lng:0
1713181753.1474552,SYS_STATUS,onboard_control_sensors_present:1467022351,onboard_control_sensors_enabled:1382063119,onboard_control_sensors_health:1198562319,load:271,voltage_battery:29,current_battery:9,battery_remaining:99,drop_rate_comm:0,errors_comm:0,errors_count1:0,errors_count2:0,errors_count3:0,errors_count4:0
1713181753.1495538,POWER_STATUS,Vcc:4917,Vservo:60,flags:4
1713181753.1495538,MEMINFO,brkval:0,freemem:65535,freemem32:588552
1713181753.1500764,NAV_CONTROLLER_OUTPUT,nav_roll:-0.00036606492358259857,nav_pitch:0.00015034752141218632,nav_bearing:-76,target_bearing:0,wp_dist:0,alt_error:4.442070007324219,aspd_error:0.0,xtrack_error:0.0
1713181753.1508453,MISSION_CURRENT,seq:0,total:0,mission_state:0,mission_mode:0
1713181753.1508453,GPS_RAW_INT,time_usec:0,fix_type:0,lat:0,lon:0,alt:0,eph:65535,epv:65535,vel:0,cog:0,satellites_visible:0,alt_ellipsoid:0,h_acc:0,v_acc:0,vel_acc:0,hdg_acc:0,yaw:0
1713181753.1513755,MCU_STATUS,id:0,MCU_temperature:4288,MCU_voltage:3282,MCU_voltage_min:3275,MCU_voltage_max:3287
1713181753.1518967,ATTITUDE,time_boot_ms:1131874,roll:-0.015029179863631725,pitch:-0.008704333566129208,yaw:-1.3408071994781494,rollspeed:6.399641279131174e-07,pitchspeed:-0.00018455473764333874,yawspeed:-0.00018529946100898087
1713181753.1528609,AHRS2,roll:-0.015098351053893566,pitch:-0.008680678904056549,yaw:-1.3451571464538574,altitude:-4.610000133514404,lat:0,lng:0
1713181753.1528609,VFR_HUD,airspeed:0.0,groundspeed:0.0019758057314902544,heading:283,throttle:0,alt:0.0,climb:-0.04338837042450905
1713181753.1533916,GLOBAL_POSITION_INT,time_boot_ms:1131882,lat:0,lon:0,alt:0,relative_alt:-4611,vx:0,vy:0,vz:4,hdg:28318
1713181753.1539328,SYSTEM_TIME,time_unix_usec:0,time_boot_ms:1131882
1713181753.1545227,AHRS,omegaIx:-0.0003002529265359044,omegaIy:0.0002130876964656636,omegaIz:-0.000530437333509326,accel_weight:0.0,renorm_val:0.0,error_rp:0.0001601127441972494,error_yaw:0.013863415457308292
1713181753.1545227,TERRAIN_REPORT,lat:0,lon:0,spacing:0,terrain_height:0.0,current_height:0.0,pending:0,loaded:0
1713181753.1550286,EKF_STATUS_REPORT,flags:167,velocity_variance:0.0,pos_horiz_variance:0.0004296362749300897,pos_vert_variance:0.024411579594016075,compass_variance:0.0009226003894582391,terrain_alt_variance:0.0,airspeed_variance:0.0
1713181753.1550286,VIBRATION,time_usec:1131882270,vibration_x:0.01584680564701557,vibration_y:0.014925108291208744,vibration_z:0.045984987169504166,clipping_0:0,clipping_1:0,clipping_2:0
1713181753.1556315,BATTERY_STATUS,id:0,battery_function:0,type:0,temperature:32767,voltages:[29, 65535, 65535, 65535, 65535, 65535, 65535, 65535, 65535, 65535],current_battery:9,current_consumed:27,energy_consumed:0,battery_remaining:99,time_remaining:0,charge_state:1,voltages_ext:[0, 0, 0, 0],mode:0,fault_bitmask:0
1713181753.1566846,ATTITUDE,time_boot_ms:1131924,roll:-0.015018233098089695,pitch:-0.00870284903794527,yaw:-1.3407994508743286,rollspeed:0.0005249661626294255,pitchspeed:6.955205753911287e-05,yawspeed:-0.0009077349677681923
1713181753.1566846,AHRS2,roll:-0.015087561681866646,pitch:-0.008677101694047451,yaw:-1.3451294898986816,altitude:-4.610000133514404,lat:0,lng:0
1713181753.1600325,ATTITUDE,time_boot_ms:1131974,roll:-0.015021364204585552,pitch:-0.008726249448955059,yaw:-1.3407889604568481,rollspeed:-0.0003250548033975065,pitchspeed:-0.0009342550183646381,yawspeed:0.0006479023140855134
1713181753.1606464,AHRS2,roll:-0.01509074866771698,pitch:-0.00869679544121027,yaw:-1.3449984788894653,altitude:-4.409999847412109,lat:0,lng:0
1713181753.1608357,VFR_HUD,airspeed:0.0,groundspeed:0.0020265968050807714,heading:283,throttle:0,alt:0.0,climb:-0.0452519915997982
1713181753.271847,ATTITUDE,time_boot_ms:1132024,roll:-0.015012248419225216,pitch:-0.008717847988009453,yaw:-1.3407729864120483,rollspeed:0.0007568469736725092,pitchspeed:0.0006442490848712623,yawspeed:1.2301956303417683e-05
1713181753.272885,AHRS2,roll:-0.015081848949193954,pitch:-0.008684328757226467,yaw:-1.3448554277420044,altitude:-4.409999847412109,lat:0,lng:0
1713181753.272885,ATTITUDE,time_boot_ms:1132074,roll:-0.015016651712357998,pitch:-0.008723756298422813,yaw:-1.3407397270202637,rollspeed:-0.00027119528385810554,pitchspeed:0.00047898132470436394,yawspeed:-0.0003284325357526541
1713181753.2738929,AHRS2,roll:-0.015086478553712368,pitch:-0.00868538673967123,yaw:-1.344643473625183,altitude:-4.599999904632568,lat:0,lng:0
1713181753.2748923,VFR_HUD,airspeed:0.0,groundspeed:0.0019194531487300992,heading:283,throttle:0,alt:0.0,climb:-0.04651542007923126
1713181753.3972316,ATTITUDE,time_boot_ms:1132124,roll:-0.015008308924734592,pitch:-0.008715194649994373,yaw:-1.3406864404678345,rollspeed:0.0006169270491227508,pitchspeed:0.0003848995838779956,yawspeed:-1.665245508775115e-05
1713181753.3993104,AHRS2,roll:-0.015079242177307606,pitch:-0.00867344532161951,yaw:-1.3444379568099976,altitude:-4.599999904632568,lat:0,lng:0
1713181753.400241,ATTITUDE,time_boot_ms:1132174,roll:-0.015009489841759205,pitch:-0.00871003232896328,yaw:-1.3406238555908203,rollspeed:-0.00019443308701738715,pitchspeed:0.0003314610803499818,yawspeed:0.0002272679121233523
1713181753.401234,AHRS2,roll:-0.015081397257745266,pitch:-0.008666888810694218,yaw:-1.3443472385406494,altitude:-4.449999809265137,lat:0,lng:0
1713181753.4015505,VFR_HUD,airspeed:0.0,groundspeed:0.001953555503860116,heading:283,throttle:0,alt:0.0,climb:-0.04793791472911835
1713181753.4025502,GLOBAL_POSITION_INT,time_boot_ms:1132216,lat:0,lon:0,alt:0,relative_alt:-4453,vx:0,vy:0,vz:4,hdg:28320
1713181753.4035516,SYSTEM_TIME,time_unix_usec:0,time_boot_ms:1132216
1713181753.4035516,AHRS,omegaIx:-0.0002999889838974923,omegaIy:0.00021315579942893237,omegaIz:-0.0005252525443211198,accel_weight:0.0,renorm_val:0.0,error_rp:0.00013267481699585915,error_yaw:0.02012297697365284
1713181753.4035516,TERRAIN_REPORT,lat:0,lon:0,spacing:0,terrain_height:0.0,current_height:0.0,pending:0,loaded:0
1713181753.4035516,EKF_STATUS_REPORT,flags:167,velocity_variance:0.0,pos_horiz_variance:0.0004228459147270769,pos_vert_variance:0.002321569249033928,compass_variance:0.0030066107865422964,terrain_alt_variance:0.0,airspeed_variance:0.0
1713181753.4035516,VIBRATION,time_usec:1132217088,vibration_x:0.010929452255368233,vibration_y:0.00890314020216465,vibration_z:0.013294962234795094,clipping_0:0,clipping_1:0,clipping_2:0
1713181753.4045503,BATTERY_STATUS,id:0,battery_function:0,type:0,temperature:32767,voltages:[27, 65535, 65535, 65535, 65535, 65535, 65535, 65535, 65535, 65535],current_battery:8,current_consumed:27,energy_consumed:0,battery_remaining:99,time_remaining:0,charge_state:1,voltages_ext:[0, 0, 0, 0],mode:0,fault_bitmask:0
1713181753.4098592,ATTITUDE,time_boot_ms:1132224,roll:-0.015011615119874477,pitch:-0.008705302141606808,yaw:-1.3405637741088867,rollspeed:-0.0006379286060109735,pitchspeed:-4.372179682832211e-05,yawspeed:0.00021715386537835002
1713181753.4098592,AHRS2,roll:-0.015084614977240562,pitch:-0.008661818690598011,yaw:-1.3443138599395752,altitude:-4.449999809265137,lat:0,lng:0
1713181753.521819,ATTITUDE,time_boot_ms:1132274,roll:-0.015008748508989811,pitch:-0.008710218593478203,yaw:-1.3405327796936035,rollspeed:0.00011841161176562309,pitchspeed:7.898353214841336e-05,yawspeed:-0.00016241517732851207
1713181753.521819,AHRS2,roll:-0.015082694590091705,pitch:-0.008668702095746994,yaw:-1.3444328308105469,altitude:-4.650000095367432,lat:0,lng:0
1713181753.5229254,VFR_HUD,airspeed:0.0,groundspeed:0.0017465752316638827,heading:283,throttle:0,alt:0.0,climb:-0.04908003285527229
1713181753.5238223,ATTITUDE,time_boot_ms:1132324,roll:-0.015003102831542492,pitch:-0.008717410266399384,yaw:-1.3405487537384033,rollspeed:0.0005443224217742682,pitchspeed:0.0002641649916768074,yawspeed:-0.000316235120408237
1713181753.5238223,AHRS2,roll:-0.015077558346092701,pitch:-0.008679485879838467,yaw:-1.3446086645126343,altitude:-4.650000095367432,lat:0,lng:0
1713181753.5683737,SYS_STATUS,onboard_control_sensors_present:1467022351,onboard_control_sensors_enabled:1382063119,onboard_control_sensors_health:1198562319,load:263,voltage_battery:29,current_battery:8,battery_remaining:99,drop_rate_comm:0,errors_comm:0,errors_count1:0,errors_count2:0,errors_count3:0,errors_count4:0
1713181753.5692928,POWER_STATUS,Vcc:4934,Vservo:43,flags:4
1713181753.5692928,MEMINFO,brkval:0,freemem:65535,freemem32:588552
1713181753.5692928,NAV_CONTROLLER_OUTPUT,nav_roll:-0.0003660648944787681,nav_pitch:0.0001503473613411188,nav_bearing:-76,target_bearing:0,wp_dist:0,alt_error:4.494801044464111,aspd_error:0.0,xtrack_error:0.0
1713181753.5702868,MISSION_CURRENT,seq:0,total:0,mission_state:0,mission_mode:0
1713181753.5702868,GPS_RAW_INT,time_usec:0,fix_type:0,lat:0,lon:0,alt:0,eph:65535,epv:65535,vel:0,cog:0,satellites_visible:0,alt_ellipsoid:0,h_acc:0,v_acc:0,vel_acc:0,hdg_acc:0,yaw:0
1713181753.5702868,MCU_STATUS,id:0,MCU_temperature:4293,MCU_voltage:3281,MCU_voltage_min:3275,MCU_voltage_max:3288
1713181753.5712924,ATTITUDE,time_boot_ms:1132374,roll:-0.015005097724497318,pitch:-0.008712153881788254,yaw:-1.3405789136886597,rollspeed:9.924973710440099e-05,pitchspeed:5.971704376861453e-05,yawspeed:-0.0005178997525945306
1713181753.5712924,AHRS2,roll:-0.01507994532585144,pitch:-0.008675998076796532,yaw:-1.3446645736694336,altitude:-4.639999866485596,lat:0,lng:0
1713181753.5712924,VFR_HUD,airspeed:0.0,groundspeed:0.0016158862272277474,heading:283,throttle:0,alt:0.0,climb:-0.05061764642596245
1713181753.710002,ATTITUDE,time_boot_ms:1132424,roll:-0.015008908696472645,pitch:-0.008709237910807133,yaw:-1.3406000137329102,rollspeed:0.00046816622489131987,pitchspeed:-0.0006323209963738918,yawspeed:0.0001625119475647807
1713181753.7110097,AHRS2,roll:-0.01508422289043665,pitch:-0.008674031123518944,yaw:-1.3446539640426636,altitude:-4.639999866485596,lat:0,lng:0
1713181753.7110097,ATTITUDE,time_boot_ms:1132474,roll:-0.015005056746304035,pitch:-0.008716968819499016,yaw:-1.340628743171692,rollspeed:-0.0008844977128319442,pitchspeed:-0.0003849058994092047,yawspeed:-7.38841772545129e-05
1713181753.7120082,AHRS2,roll:-0.015080736950039864,pitch:-0.008680412545800209,yaw:-1.3445144891738892,altitude:-4.690000057220459,lat:0,lng:0
1713181753.7120082,VFR_HUD,airspeed:0.0,groundspeed:0.0017703839112073183,heading:283,throttle:0,alt:0.0,climb:-0.0520160049200058
1713181753.7120082,ATTITUDE,time_boot_ms:1132524,roll:-0.014999783597886562,pitch:-0.008723157458007336,yaw:-1.3406193256378174,rollspeed:0.00048677989980205894,pitchspeed:-0.0007784601766616106,yawspeed:-0.0002753717708401382
1713181753.7130082,AHRS2,roll:-0.015075843781232834,pitch:-0.008683642372488976,yaw:-1.3443279266357422,altitude:-4.690000057220459,lat:0,lng:0
1713181753.8549201,GLOBAL_POSITION_INT,time_boot_ms:1132549,lat:0,lon:0,alt:0,relative_alt:-4283,vx:0,vy:0,vz:5,hdg:28319
1713181753.8558009,SYSTEM_TIME,time_unix_usec:0,time_boot_ms:1132549
1713181753.8569033,AHRS,omegaIx:-0.0002994571696035564,omegaIy:0.00021306077542249113,omegaIz:-0.0005245096981525421,accel_weight:0.0,renorm_val:0.0,error_rp:0.00011708569945767522,error_yaw:0.02301676571369171
1713181753.8569033,TERRAIN_REPORT,lat:0,lon:0,spacing:0,terrain_height:0.0,current_height:0.0,pending:0,loaded:0
1713181753.857887,EKF_STATUS_REPORT,flags:167,velocity_variance:0.0,pos_horiz_variance:0.000414018431911245,pos_vert_variance:0.01801110804080963,compass_variance:0.023702088743448257,terrain_alt_variance:0.0,airspeed_variance:0.0
1713181753.857887,VIBRATION,time_usec:1132549339,vibration_x:0.013502979651093483,vibration_y:0.012885920703411102,vibration_z:0.06091959401965141,clipping_0:0,clipping_1:0,clipping_2:0
1713181753.8588552,BATTERY_STATUS,id:0,battery_function:0,type:0,temperature:32767,voltages:[25, 65535, 65535, 65535, 65535, 65535, 65535, 65535, 65535, 65535],current_battery:8,current_consumed:27,energy_consumed:0,battery_remaining:99,time_remaining:0,charge_state:1,voltages_ext:[0, 0, 0, 0],mode:0,fault_bitmask:0
1713181753.861266,ATTITUDE,time_boot_ms:1132574,roll:-0.01500724907964468,pitch:-0.008722720667719841,yaw:-1.3405976295471191,rollspeed:-0.000780308386310935,pitchspeed:1.8153514247387648e-05,yawspeed:-1.2705451808869839e-05
1713181753.8622632,AHRS2,roll:-0.015083551406860352,pitch:-0.008684144355356693,yaw:-1.3443830013275146,altitude:-4.279999732971191,lat:0,lng:0
1713181753.863172,VFR_HUD,airspeed:0.0,groundspeed:0.0017431877786293626,heading:283,throttle:0,alt:0.0,climb:-0.05354883521795273
1713181753.8642244,HEARTBEAT,type:2,autopilot:3,base_mode:81,custom_mode:0,system_status:3,mavlink_version:3
1713181753.8651748,ATTITUDE,time_boot_ms:1132624,roll:-0.015002180822193623,pitch:-0.008730890229344368,yaw:-1.340579628944397,rollspeed:3.228566492907703e-05,pitchspeed:-0.0003755500656552613,yawspeed:0.0005981489084661007
1713181753.8661716,AHRS2,roll:-0.01507890410721302,pitch:-0.008694770745933056,yaw:-1.3445144891738892,altitude:-4.279999732971191,lat:0,lng:0
1713181753.8661716,HEARTBEAT,type:27,autopilot:8,base_mode:4,custom_mode:0,system_status:4,mavlink_version:3
1713181753.8671691,ATTITUDE,time_boot_ms:1132674,roll:-0.01499959547072649,pitch:-0.008731982670724392,yaw:-1.340583324432373,rollspeed:-0.00016176540520973504,pitchspeed:0.0008696927689015865,yawspeed:-0.00011548417387530208
1713181753.8671691,AHRS2,roll:-0.015076674520969391,pitch:-0.008696544915437698,yaw:-1.3445489406585693,altitude:-4.319999694824219,lat:0,lng:0
1713181753.8681715,VFR_HUD,airspeed:0.0,groundspeed:0.00187571975402534,heading:283,throttle:0,alt:0.0,climb:-0.05431806296110153
1713181753.9991157,ATTITUDE,time_boot_ms:1132724,roll:-0.01501027587801218,pitch:-0.008734442293643951,yaw:-1.3405803442001343,rollspeed:3.0647701350972056e-05,pitchspeed:0.0008451766334474087,yawspeed:0.000587153306696564
1713181754.0003788,AHRS2,roll:-0.015087099745869637,pitch:-0.008698919788002968,yaw:-1.3445278406143188,altitude:-4.319999694824219,lat:0,lng:0
1713181754.0003788,ATTITUDE,time_boot_ms:1132774,roll:-0.015008159913122654,pitch:-0.00872744806110859,yaw:-1.3406047821044922,rollspeed:0.00017898058285936713,pitchspeed:0.00032705950434319675,yawspeed:-0.0009464462636969984
1713181754.0013797,AHRS2,roll:-0.01508459821343422,pitch:-0.008689410984516144,yaw:-1.3443892002105713,altitude:-4.289999961853027,lat:0,lng:0
1713181754.0023816,VFR_HUD,airspeed:0.0,groundspeed:0.0018037743866443634,heading:283,throttle:0,alt:0.0,climb:-0.05407612398266792
1713181754.1240048,ATTITUDE,time_boot_ms:1132824,roll:-0.015008305199444294,pitch:-0.008731752634048462,yaw:-1.3405729532241821,rollspeed:-0.0006790770567022264,pitchspeed:0.00040482188342139125,yawspeed:0.00043165660463273525
1713181754.1250484,AHRS2,roll:-0.015084500424563885,pitch:-0.00869067944586277,yaw:-1.3441840410232544,altitude:-4.289999961853027,lat:0,lng:0
1713181754.1250484,SYS_STATUS,onboard_control_sensors_present:1467022351,onboard_control_sensors_enabled:1382063119,onboard_control_sensors_health:1198562319,load:267,voltage_battery:28,current_battery:9,battery_remaining:99,drop_rate_comm:0,errors_comm:0,errors_count1:0,errors_count2:0,errors_count3:0,errors_count4:0
1713181754.1270075,POWER_STATUS,Vcc:4917,Vservo:48,flags:4
1713181754.1270075,MEMINFO,brkval:0,freemem:65535,freemem32:588552
1713181754.1280994,NAV_CONTROLLER_OUTPUT,nav_roll:-0.00036606466164812446,nav_pitch:0.00015034715761430562,nav_bearing:-76,target_bearing:0,wp_dist:0,alt_error:4.528814792633057,aspd_error:0.0,xtrack_error:0.0
1713181754.1291113,MISSION_CURRENT,seq:0,total:0,mission_state:0,mission_mode:0
1713181754.1303039,GPS_RAW_INT,time_usec:0,fix_type:0,lat:0,lon:0,alt:0,eph:65535,epv:65535,vel:0,cog:0,satellites_visible:0,alt_ellipsoid:0,h_acc:0,v_acc:0,vel_acc:0,hdg_acc:0,yaw:0
1713181754.131479,MCU_STATUS,id:0,MCU_temperature:4293,MCU_voltage:3281,MCU_voltage_min:3275,MCU_voltage_max:3287
1713181754.131479,ATTITUDE,time_boot_ms:1132874,roll:-0.015012885443866253,pitch:-0.00873180478811264,yaw:-1.3405299186706543,rollspeed:0.00021783041302114725,pitchspeed:-1.5715384506620467e-05,yawspeed:0.0002535938401706517
1713181754.1325681,AHRS2,roll:-0.015088710933923721,pitch:-0.008689883165061474,yaw:-1.3441174030303955,altitude:-4.559999942779541,lat:0,lng:0
1713181754.1334789,VFR_HUD,airspeed:0.0,groundspeed:0.0016669839387759566,heading:283,throttle:0,alt:0.0,climb:-0.052974119782447815
1713181754.1345775,GLOBAL_POSITION_INT,time_boot_ms:1132882,lat:0,lon:0,alt:0,relative_alt:-4566,vx:0,vy:0,vz:5,hdg:28320
1713181754.1354856,SYSTEM_TIME,time_unix_usec:0,time_boot_ms:1132882
1713181754.1364913,AHRS,omegaIx:-0.0002993189264088869,omegaIy:0.00021328663569875062,omegaIz:-0.0005242038751021028,accel_weight:0.0,renorm_val:0.0,error_rp:0.00011592626105993986,error_yaw:0.019260456785559654
1713181754.1364913,TERRAIN_REPORT,lat:0,lon:0,spacing:0,terrain_height:0.0,current_height:0.0,pending:0,loaded:0
1713181754.137507,EKF_STATUS_REPORT,flags:167,velocity_variance:0.0,pos_horiz_variance:0.0004045446403324604,pos_vert_variance:0.021089427173137665,compass_variance:0.02441171184182167,terrain_alt_variance:0.0,airspeed_variance:0.0
1713181754.1384804,VIBRATION,time_usec:1132882281,vibration_x:0.012563022784888744,vibration_y:0.010112164542078972,vibration_z:0.01669512875378132,clipping_0:0,clipping_1:0,clipping_2:0
1713181754.1384804,BATTERY_STATUS,id:0,battery_function:0,type:0,temperature:32767,voltages:[28, 65535, 65535, 65535, 65535, 65535, 65535, 65535, 65535, 65535],current_battery:9,current_consumed:27,energy_consumed:0,battery_remaining:99,time_remaining:0,charge_state:1,voltages_ext:[0, 0, 0, 0],mode:0,fault_bitmask:0
1713181754.1405168,ATTITUDE,time_boot_ms:1132924,roll:-0.015016858465969563,pitch:-0.008727703243494034,yaw:-1.3404996395111084,rollspeed:-0.00020247261272743344,pitchspeed:0.0004224731237627566,yawspeed:-0.0003789715701714158
1713181754.1409285,AHRS2,roll:-0.015093404799699783,pitch:-0.008686792105436325,yaw:-1.344124674797058,altitude:-4.559999942779541,lat:0,lng:0
1713181754.2488284,ATTITUDE,time_boot_ms:1132974,roll:-0.015013196505606174,pitch:-0.00871884636580944,yaw:-1.3404788970947266,rollspeed:0.00035083075636066496,pitchspeed:0.00039778539212420583,yawspeed:-0.00035249703796580434
1713181754.2498379,AHRS2,roll:-0.015090417116880417,pitch:-0.008680017665028572,yaw:-1.3441963195800781,altitude:-4.389999866485596,lat:0,lng:0
1713181754.2498379,VFR_HUD,airspeed:0.0,groundspeed:0.001457358244806528,heading:283,throttle:0,alt:0.0,climb:-0.052597757428884506
1713181754.2509084,ATTITUDE,time_boot_ms:1133024,roll:-0.015008357353508472,pitch:-0.008716643787920475,yaw:-1.3404778242111206,rollspeed:-5.758630868513137e-05,pitchspeed:-1.7225640476681292e-05,yawspeed:-0.000558212399482727
1713181754.251019,AHRS2,roll:-0.015086349099874496,pitch:-0.008680243045091629,yaw:-1.344285011291504,altitude:-4.389999866485596,lat:0,lng:0
1713181754.2802653,ATTITUDE,time_boot_ms:1133074,roll:-0.01502001378685236,pitch:-0.008705822750926018,yaw:-1.3404682874679565,rollspeed:-0.0005363343516364694,pitchspeed:0.0005785852554254234,yawspeed:0.0004389396053738892
1713181754.2802653,AHRS2,roll:-0.015098677016794682,pitch:-0.008668913505971432,yaw:-1.3441781997680664,altitude:-4.329999923706055,lat:0,lng:0
1713181754.281333,VFR_HUD,airspeed:0.0,groundspeed:0.0013960996875539422,heading:283,throttle:0,alt:0.0,climb:-0.0517016239464283
1713181754.3741899,ATTITUDE,time_boot_ms:1133124,roll:-0.015018395148217678,pitch:-0.008697083219885826,yaw:-1.3404613733291626,rollspeed:-6.399498670361936e-05,pitchspeed:-0.00012259298819117248,yawspeed:-0.00024680912611074746
1713181754.3741899,AHRS2,roll:-0.015098885633051395,pitch:-0.008658170700073242,yaw:-1.3440344333648682,altitude:-4.329999923706055,lat:0,lng:0
1713181754.3751934,ATTITUDE,time_boot_ms:1133174,roll:-0.015028140507638454,pitch:-0.008691065013408661,yaw:-1.3404432535171509,rollspeed:-1.2783013517037034e-05,pitchspeed:-0.00025872906553559005,yawspeed:0.0003357370151206851
1713181754.3751934,AHRS2,roll:-0.015110545791685581,pitch:-0.00865105353295803,yaw:-1.3439505100250244,altitude:-4.360000133514404,lat:0,lng:0
1713181754.3761663,VFR_HUD,airspeed:0.0,groundspeed:0.0011634848779067397,heading:283,throttle:0,alt:0.0,climb:-0.05070020630955696
1713181754.467981,GLOBAL_POSITION_INT,time_boot_ms:1133214,lat:0,lon:0,alt:0,relative_alt:-4368,vx:0,vy:0,vz:4,hdg:28320
1713181754.468906,SYSTEM_TIME,time_unix_usec:0,time_boot_ms:1133214
1713181754.468906,AHRS,omegaIx:-0.00029887008713558316,omegaIy:0.0002133928646799177,omegaIz:-0.0005229776143096387,accel_weight:0.0,renorm_val:0.0,error_rp:0.00011081014963565394,error_yaw:0.019078347831964493
1713181754.469905,TERRAIN_REPORT,lat:0,lon:0,spacing:0,terrain_height:0.0,current_height:0.0,pending:0,loaded:0
1713181754.469905,EKF_STATUS_REPORT,flags:167,velocity_variance:0.0,pos_horiz_variance:0.0003943808260373771,pos_vert_variance:0.013753095641732216,compass_variance:0.005283912178128958,terrain_alt_variance:0.0,airspeed_variance:0.0
1713181754.4702315,VIBRATION,time_usec:1133214566,vibration_x:0.00791370403021574,vibration_y:0.008776899427175522,vibration_z:0.008327089250087738,clipping_0:0,clipping_1:0,clipping_2:0
1713181754.4702315,BATTERY_STATUS,id:0,battery_function:0,type:0,temperature:32767,voltages:[29, 65535, 65535, 65535, 65535, 65535, 65535, 65535, 65535, 65535],current_battery:8,current_consumed:27,energy_consumed:0,battery_remaining:99,time_remaining:0,charge_state:1,voltages_ext:[0, 0, 0, 0],mode:0,fault_bitmask:0
1713181754.4702315,ATTITUDE,time_boot_ms:1133224,roll:-0.015048245899379253,pitch:-0.008699372410774231,yaw:-1.340427041053772,rollspeed:-0.0006230388535186648,pitchspeed:0.00032427150290459394,yawspeed:0.0005407640128396451
1713181754.471297,AHRS2,roll:-0.015132688917219639,pitch:-0.008658933453261852,yaw:-1.3439128398895264,altitude:-4.360000133514404,lat:0,lng:0
1713181754.472235,ATTITUDE,time_boot_ms:1133274,roll:-0.0150598781183362,pitch:-0.008695005439221859,yaw:-1.3404057025909424,rollspeed:0.00012692244490608573,pitchspeed:-0.0001323845935985446,yawspeed:0.0003980807960033417
1713181754.4742372,AHRS2,roll:-0.0151462247595191,pitch:-0.00865638256072998,yaw:-1.3440074920654297,altitude:-4.170000076293945,lat:0,lng:0
1713181754.4742372,VFR_HUD,airspeed:0.0,groundspeed:0.0013278770493343472,heading:283,throttle:0,alt:0.0,climb:-0.04942125454545021
1713181754.5766098,ATTITUDE,time_boot_ms:1133324,roll:-0.01505389716476202,pitch:-0.008693942800164223,yaw:-1.3404152393341064,rollspeed:9.321491234004498e-05,pitchspeed:0.0005661952891387045,yawspeed:-0.00015303687541745603
1713181754.5776243,AHRS2,roll:-0.015141886658966541,pitch:-0.008657501079142094,yaw:-1.3441579341888428,altitude:-4.170000076293945,lat:0,lng:0
1713181754.5776243,SYS_STATUS,onboard_control_sensors_present:1467022351,onboard_control_sensors_enabled:1382063119,onboard_control_sensors_health:1198562319,load:263,voltage_battery:24,current_battery:8,battery_remaining:99,drop_rate_comm:0,errors_comm:0,errors_count1:0,errors_count2:0,errors_count3:0,errors_count4:0
1713181754.5786197,POWER_STATUS,Vcc:4914,Vservo:53,flags:4
1713181754.57954,MEMINFO,brkval:0,freemem:65535,freemem32:588552
1713181754.57954,NAV_CONTROLLER_OUTPUT,nav_roll:-0.000366064632544294,nav_pitch:0.00015034702664706856,nav_bearing:-76,target_bearing:0,wp_dist:0,alt_error:4.524901390075684,aspd_error:0.0,xtrack_error:0.0
1713181754.57954,MISSION_CURRENT,seq:0,total:0,mission_state:0,mission_mode:0
1713181754.5805395,GPS_RAW_INT,time_usec:0,fix_type:0,lat:0,lon:0,alt:0,eph:65535,epv:65535,vel:0,cog:0,satellites_visible:0,alt_ellipsoid:0,h_acc:0,v_acc:0,vel_acc:0,hdg_acc:0,yaw:0
1713181754.5807927,MCU_STATUS,id:0,MCU_temperature:4290,MCU_voltage:3281,MCU_voltage_min:3274,MCU_voltage_max:3287
1713181754.5807927,ATTITUDE,time_boot_ms:1133374,roll:-0.015041322447359562,pitch:-0.008684933185577393,yaw:-1.3404277563095093,rollspeed:0.00025952220312319696,pitchspeed:-0.00017493001359980553,yawspeed:0.00048515573143959045
1713181754.581876,AHRS2,roll:-0.015130732208490372,pitch:-0.008650117553770542,yaw:-1.3442764282226562,altitude:-4.519999980926514,lat:0,lng:0
1713181754.581876,VFR_HUD,airspeed:0.0,groundspeed:0.001315386383794248,heading:283,throttle:0,alt:0.0,climb:-0.047498542815446854
1713181754.7176418,ATTITUDE,time_boot_ms:1133424,roll:-0.015051805414259434,pitch:-0.008658400736749172,yaw:-1.3404746055603027,rollspeed:-0.0004273640806786716,pitchspeed:0.0006013275124132633,yawspeed:0.0001794999116100371
1713181754.7186127,AHRS2,roll:-0.01514267548918724,pitch:-0.008624937385320663,yaw:-1.344390869140625,altitude:-4.519999980926514,lat:0,lng:0
1713181754.7186127,ATTITUDE,time_boot_ms:1133474,roll:-0.015063515864312649,pitch:-0.008662250824272633,yaw:-1.3405237197875977,rollspeed:-0.00021426365128718317,pitchspeed:0.00018154605641029775,yawspeed:0.0001709983334876597
1713181754.7197049,AHRS2,roll:-0.015155711211264133,pitch:-0.008627849631011486,yaw:-1.3443689346313477,altitude:-4.619999885559082,lat:0,lng:0
1713181754.7198305,VFR_HUD,airspeed:0.0,groundspeed:0.001269402215257287,heading:283,throttle:0,alt:0.0,climb:-0.04591018334031105
1713181754.7208521,ATTITUDE,time_boot_ms:1133524,roll:-0.015065825544297695,pitch:-0.008664275519549847,yaw:-1.3405479192733765,rollspeed:0.00016600301023572683,pitchspeed:0.00016229522589128464,yawspeed:-0.00022110427380539477
1713181754.7208521,AHRS2,roll:-0.015158537775278091,pitch:-0.008628939278423786,yaw:-1.3442884683609009,altitude:-4.619999885559082,lat:0,lng:0
1713181754.7804286,GLOBAL_POSITION_INT,time_boot_ms:1133549,lat:0,lon:0,alt:0,relative_alt:-4283,vx:0,vy:0,vz:4,hdg:28320
1713181754.7814388,SYSTEM_TIME,time_unix_usec:0,time_boot_ms:1133549
1713181754.7814388,AHRS,omegaIx:-0.00029860323411412537,omegaIy:0.00021355587523430586,omegaIz:-0.0005253434064798057,accel_weight:0.0,renorm_val:0.0,error_rp:9.653637243900448e-05,error_yaw:0.018180416896939278
1713181754.7814388,TERRAIN_REPORT,lat:0,lon:0,spacing:0,terrain_height:0.0,current_height:0.0,pending:0,loaded:0
1713181754.7824366,EKF_STATUS_REPORT,flags:167,velocity_variance:0.0,pos_horiz_variance:0.00035582494456321,pos_vert_variance:0.012379189021885395,compass_variance:0.010337096638977528,terrain_alt_variance:0.0,airspeed_variance:0.0
1713181754.7824366,VIBRATION,time_usec:1133549326,vibration_x:0.007437927648425102,vibration_y:0.007077426183968782,vibration_z:0.00864272192120552,clipping_0:0,clipping_1:0,clipping_2:0
1713181754.7824366,BATTERY_STATUS,id:0,battery_function:0,type:0,temperature:32767,voltages:[29, 65535, 65535, 65535, 65535, 65535, 65535, 65535, 65535, 65535],current_battery:9,current_consumed:27,energy_consumed:0,battery_remaining:99,time_remaining:0,charge_state:1,voltages_ext:[0, 0, 0, 0],mode:0,fault_bitmask:0
1713181754.7834384,ATTITUDE,time_boot_ms:1133574,roll:-0.015056555159389973,pitch:-0.0086567597463727,yaw:-1.3405475616455078,rollspeed:9.654686436988413e-05,pitchspeed:7.412429840769619e-05,yawspeed:0.00013510260032489896
1713181754.7844393,AHRS2,roll:-0.015149342827498913,pitch:-0.00862257368862629,yaw:-1.3443137407302856,altitude:-4.279999732971191,lat:0,lng:0
1713181754.7844393,VFR_HUD,airspeed:0.0,groundspeed:0.0012428091140463948,heading:283,throttle:0,alt:0.0,climb:-0.045387718826532364
1713181754.843267,HEARTBEAT,type:2,autopilot:3,base_mode:81,custom_mode:0,system_status:3,mavlink_version:3
1713181754.844178,ATTITUDE,time_boot_ms:1133624,roll:-0.015058097429573536,pitch:-0.008655046112835407,yaw:-1.3405627012252808,rollspeed:-0.0003244316903874278,pitchspeed:8.485642320010811e-05,yawspeed:-0.0002050429757218808
1713181754.8451726,AHRS2,roll:-0.015151151455938816,pitch:-0.008622814901173115,yaw:-1.3443970680236816,altitude:-4.279999732971191,lat:0,lng:0
1713181754.8451726,HEARTBEAT,type:27,autopilot:8,base_mode:4,custom_mode:0,system_status:4,mavlink_version:3
1713181754.9532192,ATTITUDE,time_boot_ms:1133674,roll:-0.015225409530103207,pitch:-0.008339096792042255,yaw:-1.3404961824417114,rollspeed:-0.005743043497204781,pitchspeed:0.015569963492453098,yawspeed:0.00496592465788126
1713181754.9532192,AHRS2,roll:-0.015318618156015873,pitch:-0.00830794032663107,yaw:-1.344348430633545,altitude:-4.429999828338623,lat:0,lng:0
1713181754.9540896,VFR_HUD,airspeed:0.0,groundspeed:0.0021301754750311375,heading:283,throttle:0,alt:0.0,climb:-0.045397765934467316
1713181754.9540896,ATTITUDE,time_boot_ms:1133724,roll:-0.015042710117995739,pitch:-0.008341995067894459,yaw:-1.3406130075454712,rollspeed:0.00992167554795742,pitchspeed:-0.004259078297764063,yawspeed:-0.007131706457585096
1713181754.9550867,AHRS2,roll:-0.015141844749450684,pitch:-0.008308770135045052,yaw:-1.3444644212722778,altitude:-4.429999828338623,lat:0,lng:0
1713181755.0005882,ATTITUDE,time_boot_ms:1133774,roll:-0.015110434032976627,pitch:-0.009183893911540508,yaw:-1.340476155281067,rollspeed:0.009151690639555454,pitchspeed:-0.012955770827829838,yawspeed:0.0027460716664791107
1713181755.000997,AHRS2,roll:-0.015217410400509834,pitch:-0.00914846733212471,yaw:-1.3443843126296997,altitude:-4.569999694824219,lat:0,lng:0
1713181755.0015097,VFR_HUD,airspeed:0.0,groundspeed:0.004275463055819273,heading:283,throttle:0,alt:0.0,climb:-0.04342958331108093
1713181755.0786252,ATTITUDE,time_boot_ms:1133824,roll:-0.014909018762409687,pitch:-0.009960395283997059,yaw:-1.3412374258041382,rollspeed:-0.019499503076076508,pitchspeed:-0.019131416454911232,yawspeed:-0.020392820239067078
1713181755.0786252,AHRS2,roll:-0.015023816376924515,pitch:-0.009923232719302177,yaw:-1.3452129364013672,altitude:-4.569999694824219,lat:0,lng:0
1713181755.0801196,SYS_STATUS,onboard_control_sensors_present:1467022351,onboard_control_sensors_enabled:1382063119,onboard_control_sensors_health:1198562319,load:268,voltage_battery:28,current_battery:8,battery_remaining:99,drop_rate_comm:0,errors_comm:0,errors_count1:0,errors_count2:0,errors_count3:0,errors_count4:0
1713181755.0811293,POWER_STATUS,Vcc:4930,Vservo:45,flags:4
1713181755.0811293,MEMINFO,brkval:0,freemem:65535,freemem32:588552
1713181755.0811293,NAV_CONTROLLER_OUTPUT,nav_roll:-0.00036606466164812446,nav_pitch:0.00015034702664706856,nav_bearing:-76,target_bearing:0,wp_dist:0,alt_error:4.522541522979736,aspd_error:0.0,xtrack_error:0.0
1713181755.0831301,MISSION_CURRENT,seq:0,total:0,mission_state:0,mission_mode:0
1713181755.0831301,GPS_RAW_INT,time_usec:0,fix_type:0,lat:0,lon:0,alt:0,eph:65535,epv:65535,vel:0,cog:0,satellites_visible:0,alt_ellipsoid:0,h_acc:0,v_acc:0,vel_acc:0,hdg_acc:0,yaw:0
1713181755.0841212,MCU_STATUS,id:0,MCU_temperature:4293,MCU_voltage:3281,MCU_voltage_min:3275,MCU_voltage_max:3286
1713181755.0841212,ATTITUDE,time_boot_ms:1133874,roll:-0.016750985756516457,pitch:-0.009966004639863968,yaw:-1.342446208000183,rollspeed:-0.029876239597797394,pitchspeed:0.009830606169998646,yawspeed:-0.016800768673419952
1713181755.0841212,AHRS2,roll:-0.01687357947230339,pitch:-0.009926659986376762,yaw:-1.346451997756958,altitude:-4.130000114440918,lat:0,lng:0
1713181755.0852044,VFR_HUD,airspeed:0.0,groundspeed:0.015634117648005486,heading:283,throttle:0,alt:0.0,climb:-0.027684461325407028
1713181755.0862176,GLOBAL_POSITION_INT,time_boot_ms:1133882,lat:0,lon:0,alt:0,relative_alt:-4131,vx:0,vy:-1,vz:2,hdg:28308
1713181755.0871272,SYSTEM_TIME,time_unix_usec:0,time_boot_ms:1133882
1713181755.0881245,AHRS,omegaIx:-0.000298325321637094,omegaIy:0.00021370052127167583,omegaIz:-0.0005278417957015336,accel_weight:0.0,renorm_val:0.0,error_rp:0.00023230930673889816,error_yaw:0.013324538245797157
1713181755.0881245,TERRAIN_REPORT,lat:0,lon:0,spacing:0,terrain_height:0.0,current_height:0.0,pending:0,loaded:0
1713181755.0881245,EKF_STATUS_REPORT,flags:167,velocity_variance:0.0,pos_horiz_variance:0.0003226821427233517,pos_vert_variance:0.006975559052079916,compass_variance:0.012033279053866863,terrain_alt_variance:0.0,airspeed_variance:0.0
1713181755.0892076,VIBRATION,time_usec:1133882240,vibration_x:0.2753046154975891,vibration_y:0.21455252170562744,vibration_z:0.588478684425354,clipping_0:0,clipping_1:0,clipping_2:0
1713181755.090336,BATTERY_STATUS,id:0,battery_function:0,type:0,temperature:32767,voltages:[28, 65535, 65535, 65535, 65535, 65535, 65535, 65535, 65535, 65535],current_battery:8,current_consumed:27,energy_consumed:0,battery_remaining:99,time_remaining:0,charge_state:1,voltages_ext:[0, 0, 0, 0],mode:0,fault_bitmask:0
1713181755.1733189,ATTITUDE,time_boot_ms:1133924,roll:-0.01664479449391365,pitch:-0.011479662731289864,yaw:-1.3426021337509155,rollspeed:0.011989390477538109,pitchspeed:-0.06276661902666092,yawspeed:0.00907094031572342
1713181755.1733189,AHRS2,roll:-0.016729405149817467,pitch:-0.011398694477975368,yaw:-1.3466359376907349,altitude:-4.130000114440918,lat:0,lng:0
1713181755.1733189,ATTITUDE,time_boot_ms:1133974,roll:-0.012850772589445114,pitch:-0.016898132860660553,yaw:-1.3400806188583374,rollspeed:0.140252947807312,pitchspeed:-0.11287716776132584,yawspeed:0.07321353256702423
1713181755.1733189,AHRS2,roll:-0.012878075242042542,pitch:-0.016757462173700333,yaw:-1.3440817594528198,altitude:-4.259999752044678,lat:0,lng:0
1713181755.174264,VFR_HUD,airspeed:0.0,groundspeed:0.051719699054956436,heading:283,throttle:0,alt:0.0,climb:-0.04156309738755226
1713181755.2357645,ATTITUDE,time_boot_ms:1134024,roll:-0.0016412745462730527,pitch:-0.02182081528007984,yaw:-1.335080862045288,rollspeed:0.2039114236831665,pitchspeed:-0.08907054364681244,yawspeed:0.11706150323152542
1713181755.2366877,AHRS2,roll:-0.0016101582441478968,pitch:-0.021622152999043465,yaw:-1.339099645614624,altitude:-4.259999752044678,lat:0,lng:0
1713181755.3598337,ATTITUDE,time_boot_ms:1134074,roll:0.0018008588813245296,pitch:-0.026644792407751083,yaw:-1.3296003341674805,rollspeed:0.040678925812244415,pitchspeed:-0.11122617870569229,yawspeed:0.09143514931201935
1713181755.3607738,AHRS2,roll:0.0018931726226583123,pitch:-0.026387309655547142,yaw:-1.333777904510498,altitude:-4.289999961853027,lat:0,lng:0
1713181755.3613043,VFR_HUD,airspeed:0.0,groundspeed:0.07632109522819519,heading:283,throttle:0,alt:0.0,climb:-0.03128507360816002
1713181755.361823,ATTITUDE,time_boot_ms:1134124,roll:0.0022105660755187273,pitch:-0.02830073982477188,yaw:-1.3275938034057617,rollspeed:-0.014606554061174393,pitchspeed:0.008813231252133846,yawspeed:0.010871865786612034
1713181755.362365,AHRS2,roll:0.0022934190928936005,pitch:-0.027819808572530746,yaw:-1.3319555521011353,altitude:-4.289999961853027,lat:0,lng:0
1713181755.362365,ATTITUDE,time_boot_ms:1134174,roll:0.0010186727158725262,pitch:-0.027658183127641678,yaw:-1.329400658607483,rollspeed:-0.03355737403035164,pitchspeed:0.013081063516438007,yawspeed:-0.05402211844921112
1713181755.3629172,AHRS2,roll:0.0010506248800083995,pitch:-0.026863688603043556,yaw:-1.3339017629623413,altitude:-4.319999694824219,lat:0,lng:0
1713181755.363438,VFR_HUD,airspeed:0.0,groundspeed:0.06413768976926804,heading:283,throttle:0,alt:0.0,climb:-0.055899716913700104
1713181755.4530163,GLOBAL_POSITION_INT,time_boot_ms:1134214,lat:0,lon:0,alt:0,relative_alt:-4323,vx:-2,vy:-5,vz:4,hdg:28370
1713181755.454005,SYSTEM_TIME,time_unix_usec:0,time_boot_ms:1134214
1713181755.454005,AHRS,omegaIx:-0.00029812901630066335,omegaIy:0.00021513509273063391,omegaIz:-0.0005320059135556221,accel_weight:0.0,renorm_val:0.0,error_rp:0.007892381399869919,error_yaw:0.020583705976605415
1713181755.4549544,TERRAIN_REPORT,lat:0,lon:0,spacing:0,terrain_height:0.0,current_height:0.0,pending:0,loaded:0
1713181755.4549544,EKF_STATUS_REPORT,flags:167,velocity_variance:0.0,pos_horiz_variance:0.0029828576371073723,pos_vert_variance:0.015660515055060387,compass_variance:0.02103240042924881,terrain_alt_variance:0.0,airspeed_variance:0.0
1713181755.4559953,VIBRATION,time_usec:1134214611,vibration_x:0.27980995178222656,vibration_y:0.2011808156967163,vibration_z:0.46161124110221863,clipping_0:0,clipping_1:0,clipping_2:0
1713181755.4559953,BATTERY_STATUS,id:0,battery_function:0,type:0,temperature:32767,voltages:[28, 65535, 65535, 65535, 65535, 65535, 65535, 65535, 65535, 65535],current_battery:8,current_consumed:27,energy_consumed:0,battery_remaining:99,time_remaining:0,charge_state:1,voltages_ext:[0, 0, 0, 0],mode:0,fault_bitmask:0
1713181755.4559953,ATTITUDE,time_boot_ms:1134224,roll:-0.0023951418697834015,pitch:-0.02232622541487217,yaw:-1.3323192596435547,rollspeed:-0.07485564798116684,pitchspeed:0.14563749730587006,yawspeed:-0.056540168821811676
1713181755.4559953,AHRS2,roll:-0.0024169019889086485,pitch:-0.021220963448286057,yaw:-1.3368909358978271,altitude:-4.319999694824219,lat:0,lng:0
1713181755.4603655,ATTITUDE,time_boot_ms:1134274,roll:-0.008807883597910404,pitch:-0.015787141397595406,yaw:-1.3353939056396484,rollspeed:-0.17184773087501526,pitchspeed:0.1262562870979309,yawspeed:-0.0595179907977581
1713181755.4613614,AHRS2,roll:-0.008884748443961143,pitch:-0.014372568577528,yaw:-1.3400282859802246,altitude:-4.5,lat:0,lng:0
1713181755.4623609,VFR_HUD,airspeed:0.0,groundspeed:0.07103358954191208,heading:283,throttle:0,alt:0.0,climb:-0.03520044684410095
1713181755.5777934,ATTITUDE,time_boot_ms:1134324,roll:-0.020146368071436882,pitch:-0.009100240655243397,yaw:-1.3386995792388916,rollspeed:-0.24851137399673462,pitchspeed:0.1375923752784729,yawspeed:-0.0668153241276741
1713181755.5777934,AHRS2,roll:-0.020087633281946182,pitch:-0.007557061035186052,yaw:-1.343322992324829,altitude:-4.5,lat:0,lng:0
